$GNRMC,053800.00,A,4006.53565,N,11617.91899,E,2.300,,100821,,,A,V*13[2021-08-10 01:37:58.326]
$GNGGA,053800.00,4006.53565,N,11617.91899,E,1,10,1.28,41.6,M,,M,,*69[2021-08-10 01:37:58.326]
$GNGSA,A,3,05,02,06,13,20,25,29,12,,,,,1.92,1.28,1.44,1*0F[2021-08-10 01:37:58.326]
$GNGSA,A,3,19,30,,,,,,,,,,,1.92,1.28,1.44,4*0F[2021-08-10 01:37:58.326]
$GPGSV,3,1,12,02,69,082,24,05,55,268,32,06,31,103,26,13,30,176,24,0*68[2021-08-10 01:37:58.326]
$GPGSV,3,2,12,20,74,358,18,25,10,262,17,29,32,312,12,07,09,074,,0*63[2021-08-10 01:37:58.326]
$GPGSV,3,3,12,09,12,039,,12,08,231,14,15,10,204,,30,07,108,,0*66[2021-08-10 01:37:58.326]
$GBGSV,4,1,16,19,60,232,18,30,17,145,14,01,35,140,,02,34,224,,0*72[2021-08-10 01:37:58.326]
$GBGSV,4,2,16,03,45,189,,04,26,123,,06,18,178,,07,05,189,,0*77[2021-08-10 01:37:58.326]
$GBGSV,4,3,16,08,67,021,,09,06,186,,10,15,210,,13,60,320,,0*7E[2021-08-10 01:37:58.326]
$GBGSV,4,4,16,16,22,174,,20,63,046,,22,08,229,,29,70,170,,0*7B[2021-08-10 01:37:58.326]
$GNRMC,053801.00,A,4006.53592,N,11617.91891,E,1.771,,100821,,,A,V*13[2021-08-10 01:37:59.327]
$GNGGA,053801.00,4006.53592,N,11617.91891,E,1,10,1.60,41.8,M,,M,,*6A[2021-08-10 01:37:59.327]
$GNGSA,A,3,05,02,06,13,20,25,29,12,,,,,2.30,1.60,1.65,1*0B[2021-08-10 01:37:59.327]
$GNGSA,A,3,19,30,,,,,,,,,,,2.30,1.60,1.65,4*0B[2021-08-10 01:37:59.327]
$GPGSV,3,1,12,02,69,082,27,05,55,268,34,06,31,103,28,13,30,176,27,0*60[2021-08-10 01:37:59.327]
$GPGSV,3,2,12,20,74,358,17,25,10,262,17,07,09,074,,09,12,039,,0*65[2021-08-10 01:37:59.327]
$GPGSV,3,3,12,12,08,231,14,15,10,204,,29,32,312,12,30,07,108,,0*6F[2021-08-10 01:37:59.327]
$GBGSV,4,1,16,19,60,232,18,30,17,145,14,01,35,140,,02,34,224,,0*72[2021-08-10 01:37:59.327]
$GBGSV,4,2,16,03,45,189,,04,26,123,,06,18,178,,07,05,189,,0*77[2021-08-10 01:37:59.327]
$GBGSV,4,3,16,08,67,021,,09,06,186,,10,15,210,,13,60,320,,0*7E[2021-08-10 01:37:59.327]
$GBGSV,4,4,16,16,22,174,,20,63,046,,22,08,229,,29,70,170,,0*7B[2021-08-10 01:37:59.327]
$GNRMC,053802.00,A,4006.53582,N,11617.91921,E,0.991,,100821,,,A,V*1A[2021-08-10 01:38:00.330]
$GNGGA,053802.00,4006.53582,N,11617.91921,E,1,10,1.60,42.0,M,,M,,*69[2021-08-10 01:38:00.330]
$GNGSA,A,3,05,02,06,13,20,25,29,12,,,,,2.30,1.60,1.65,1*0B[2021-08-10 01:38:00.330]
$GNGSA,A,3,19,30,,,,,,,,,,,2.30,1.60,1.65,4*0B[2021-08-10 01:38:00.330]
$GPGSV,3,1,12,02,69,082,27,05,55,268,32,06,31,103,28,13,30,176,28,0*69[2021-08-10 01:38:00.330]
$GPGSV,3,2,12,20,74,358,17,25,10,262,16,07,09,074,,09,12,039,,0*64[2021-08-10 01:38:00.330]
$GPGSV,3,3,12,12,08,231,14,15,10,204,,29,33,312,12,30,07,108,,0*6E[2021-08-10 01:38:00.330]
$GBGSV,4,1,16,19,60,232,19,30,17,145,14,01,35,140,,02,34,224,,0*73[2021-08-10 01:38:00.330]
$GBGSV,4,2,16,03,45,189,,04,26,123,,06,18,178,,07,05,189,,0*77[2021-08-10 01:38:00.330]
$GBGSV,4,3,16,08,67,021,,09,06,186,,10,15,210,,13,60,320,,0*7E[2021-08-10 01:38:00.330]
$GBGSV,4,4,16,16,22,174,,20,63,046,,22,08,229,,29,70,170,,0*7B[2021-08-10 01:38:00.330]
$GNRMC,053803.00,A,4006.53559,N,11617.91932,E,0.704,,100821,,,A,V*1D[2021-08-10 01:38:01.334]
$GNGGA,053803.00,4006.53559,N,11617.91932,E,1,10,1.55,42.4,M,,M,,*6E[2021-08-10 01:38:01.334]
$GNGSA,A,3,05,02,06,13,20,25,29,12,,,,,2.24,1.55,1.61,1*0C[2021-08-10 01:38:01.334]
$GNGSA,A,3,19,30,,,,,,,,,,,2.24,1.55,1.61,4*0C[2021-08-10 01:38:01.334]
$GPGSV,3,1,12,02,69,082,27,05,55,268,33,06,31,103,27,12,08,231,14,0*62[2021-08-10 01:38:01.334]
$GPGSV,3,2,12,13,30,176,28,20,74,358,18,25,10,262,16,07,09,074,,0*60[2021-08-10 01:38:01.334]
$GPGSV,3,3,12,09,12,039,,15,10,204,,29,33,312,12,30,07,108,,0*60[2021-08-10 01:38:01.334]
$GBGSV,4,1,16,19,60,232,19,30,17,145,14,01,35,140,,02,34,224,,0*73[2021-08-10 01:38:01.334]
$GBGSV,4,2,16,03,45,189,,04,26,123,,06,18,178,,07,05,189,,0*77[2021-08-10 01:38:01.334]
$GBGSV,4,3,16,08,67,021,,09,06,186,,10,15,210,,13,60,320,,0*7E[2021-08-10 01:38:01.334]
$GBGSV,4,4,16,16,22,174,,20,63,046,,22,08,229,,29,70,170,,0*7B[2021-08-10 01:38:01.334]
$GNRMC,053804.00,A,4006.53547,N,11617.91957,E,0.585,,100821,,,A,V*1D[2021-08-10 01:38:02.322]
$GNGGA,053804.00,4006.53547,N,11617.91957,E,1,10,1.60,42.8,M,,M,,*6F[2021-08-10 01:38:02.322]
$GNGSA,A,3,05,02,06,13,20,25,29,12,,,,,2.30,1.60,1.64,1*0A[2021-08-10 01:38:02.322]
$GNGSA,A,3,19,30,,,,,,,,,,,2.30,1.60,1.64,4*0A[2021-08-10 01:38:02.322]
$GPGSV,3,1,12,02,69,082,27,05,55,268,34,06,31,103,27,13,30,176,27,0*6F[2021-08-10 01:38:02.322]
$GPGSV,3,2,12,20,74,358,18,25,10,262,17,07,09,074,,09,12,039,,0*6A[2021-08-10 01:38:02.322]
$GPGSV,3,3,12,12,08,231,16,15,10,204,,29,33,312,13,30,07,108,,0*6D[2021-08-10 01:38:02.322]
$GBGSV,4,1,16,19,60,232,19,30,17,145,14,01,35,140,,02,34,224,,0*73[2021-08-10 01:38:02.322]
$GBGSV,4,2,16,03,45,189,,04,26,123,,06,18,178,,07,05,189,,0*77[2021-08-10 01:38:02.322]
$GBGSV,4,3,16,08,67,022,,09,06,186,,10,15,210,,13,60,320,,0*7D[2021-08-10 01:38:02.322]
$GBGSV,4,4,16,16,22,174,,20,63,046,,22,08,229,,29,70,170,,0*7B[2021-08-10 01:38:02.322]
$GNRMC,053805.00,A,4006.53548,N,11617.91979,E,0.278,,100821,,,A,V*1A[2021-08-10 01:38:03.325]
$GNGGA,053805.00,4006.53548,N,11617.91979,E,1,10,1.55,43.4,M,,M,,*66[2021-08-10 01:38:03.325]
$GNGSA,A,3,05,02,06,13,20,25,29,12,,,,,2.24,1.55,1.61,1*0C[2021-08-10 01:38:03.325]
$GNGSA,A,3,19,30,,,,,,,,,,,2.24,1.55,1.61,4*0C[2021-08-10 01:38:03.325]
$GPGSV,3,1,12,02,69,082,24,05,55,268,35,06,31,103,27,12,08,231,16,0*65[2021-08-10 01:38:03.325]
$GPGSV,3,2,12,13,30,176,26,20,74,358,19,25,10,262,17,07,09,074,,0*6E[2021-08-10 01:38:03.325]
$GPGSV,3,3,12,09,12,039,,15,10,204,,29,33,312,13,30,07,108,,0*61[2021-08-10 01:38:03.325]
$GBGSV,4,1,16,19,60,232,19,30,17,145,15,01,35,140,,02,34,224,,0*72[2021-08-10 01:38:03.325]
$GBGSV,4,2,16,03,45,189,,04,26,123,,06,18,178,,07,05,189,,0*77[2021-08-10 01:38:03.325]
$GBGSV,4,3,16,08,67,022,,09,06,186,,10,15,210,,13,60,320,,0*7D[2021-08-10 01:38:03.325]
$GBGSV,4,4,16,16,22,174,,20,63,046,,22,08,229,,29,70,170,,0*7B[2021-08-10 01:38:03.325]
$GNRMC,053806.00,A,4006.53546,N,11617.91999,E,0.525,,100821,,,A,V*16[2021-08-10 01:38:04.327]
$GNGGA,053806.00,4006.53546,N,11617.91999,E,1,10,1.55,43.6,M,,M,,*67[2021-08-10 01:38:04.327]
$GNGSA,A,3,05,02,06,13,20,25,29,12,,,,,2.24,1.55,1.61,1*0C[2021-08-10 01:38:04.327]
$GNGSA,A,3,19,30,,,,,,,,,,,2.24,1.55,1.61,4*0C[2021-08-10 01:38:04.327]
$GPGSV,3,1,12,02,69,082,26,05,55,268,33,06,31,103,26,12,08,231,16,0*60[2021-08-10 01:38:04.327]
$GPGSV,3,2,12,13,30,176,27,20,74,358,19,25,10,262,16,07,09,074,,0*6E[2021-08-10 01:38:04.327]
$GPGSV,3,3,12,09,12,039,,15,10,204,,29,33,312,13,30,07,108,,0*61[2021-08-10 01:38:04.327]
$GBGSV,4,1,16,19,60,232,22,30,17,145,15,01,35,140,,02,34,224,,0*7A[2021-08-10 01:38:04.327]
$GBGSV,4,2,16,03,45,189,,04,26,123,,06,18,178,,07,05,189,,0*77[2021-08-10 01:38:04.327]
$GBGSV,4,3,16,08,67,022,,09,06,186,,10,15,210,,13,60,320,,0*7D[2021-08-10 01:38:04.327]
$GBGSV,4,4,16,16,22,174,,20,63,046,,22,08,229,,29,70,170,,0*7B[2021-08-10 01:38:04.327]
$GNRMC,053807.00,A,4006.53518,N,11617.92012,E,1.117,,100821,,,A,V*11[2021-08-10 01:38:05.330]
$GNGGA,053807.00,4006.53518,N,11617.92012,E,1,10,1.55,44.1,M,,M,,*64[2021-08-10 01:38:05.330]
$GNGSA,A,3,05,02,06,13,20,25,29,12,,,,,2.24,1.55,1.61,1*0C[2021-08-10 01:38:05.330]
$GNGSA,A,3,19,30,,,,,,,,,,,2.24,1.55,1.61,4*0C[2021-08-10 01:38:05.330]
$GPGSV,3,1,12,02,69,082,23,05,55,268,35,06,31,103,28,12,08,231,16,0*6D[2021-08-10 01:38:05.330]
$GPGSV,3,2,12,13,30,176,27,20,74,358,20,25,10,262,16,07,09,074,,0*64[2021-08-10 01:38:05.330]
$GPGSV,3,3,12,09,12,039,,15,11,204,,29,33,312,13,30,07,108,,0*60[2021-08-10 01:38:05.330]
$GBGSV,4,1,16,19,60,232,22,30,17,145,15,01,35,140,,02,34,224,,0*7A[2021-08-10 01:38:05.330]
$GBGSV,4,2,16,03,45,189,,04,26,123,,06,18,178,,07,05,189,,0*77[2021-08-10 01:38:05.330]
$GBGSV,4,3,16,08,67,022,,09,06,186,,10,15,210,,13,60,320,,0*7D[2021-08-10 01:38:05.330]
$GBGSV,4,4,16,16,22,174,,20,63,046,,22,08,229,,29,70,170,,0*7B[2021-08-10 01:38:05.330]
$GNRMC,053808.00,A,4006.53505,N,11617.92035,E,0.634,,100821,,,A,V*10[2021-08-10 01:38:06.319]
$GNGGA,053808.00,4006.53505,N,11617.92035,E,1,10,1.55,44.8,M,,M,,*6B[2021-08-10 01:38:06.319]
$GNGSA,A,3,05,02,06,13,20,25,29,12,,,,,2.24,1.55,1.61,1*0C[2021-08-10 01:38:06.319]
$GNGSA,A,3,19,30,,,,,,,,,,,2.24,1.55,1.61,4*0C[2021-08-10 01:38:06.319]
$GPGSV,3,1,12,02,69,082,23,05,55,268,33,06,31,103,28,12,08,231,16,0*6B[2021-08-10 01:38:06.319]
$GPGSV,3,2,12,13,30,176,28,20,74,358,20,25,10,262,18,07,09,074,,0*65[2021-08-10 01:38:06.319]
$GPGSV,3,3,12,09,12,039,,15,11,204,,29,33,312,13,30,07,108,,0*60[2021-08-10 01:38:06.319]
$GBGSV,4,1,16,19,60,232,22,30,17,145,15,01,35,140,,02,34,224,,0*7A[2021-08-10 01:38:06.319]
$GBGSV,4,2,16,03,45,189,,04,26,123,,06,18,178,,07,05,189,,0*77[2021-08-10 01:38:06.319]
$GBGSV,4,3,16,08,67,022,,09,06,186,,10,15,210,,13,60,320,,0*7D[2021-08-10 01:38:06.319]
$GBGSV,4,4,16,16,22,174,,20,63,046,,22,08,229,,29,70,170,,0*7B[2021-08-10 01:38:06.319]
$GNRMC,053809.00,A,4006.53508,N,11617.92057,E,0.167,,100821,,,A,V*19[2021-08-10 01:38:07.322]
$GNGGA,053809.00,4006.53508,N,11617.92057,E,1,10,1.62,44.9,M,,M,,*66[2021-08-10 01:38:07.322]
$GNGSA,A,3,05,02,06,13,20,25,29,12,,,,,2.50,1.62,1.90,1*05[2021-08-10 01:38:07.322]
$GNGSA,A,3,19,30,,,,,,,,,,,2.50,1.62,1.90,4*05[2021-08-10 01:38:07.322]
$GPGSV,3,1,12,02,69,082,22,05,55,268,34,06,31,103,25,12,08,231,20,0*65[2021-08-10 01:38:07.322]
$GPGSV,3,2,12,13,30,176,28,20,74,358,20,25,10,262,18,07,09,074,,0*65[2021-08-10 01:38:07.322]
$GPGSV,3,3,12,09,12,039,,15,11,204,,29,33,312,13,30,07,108,,0*60[2021-08-10 01:38:07.322]
$GBGSV,4,1,16,01,35,140,,02,34,224,,03,45,189,,04,26,123,,0*74[2021-08-10 01:38:07.322]
$GBGSV,4,2,16,06,18,178,,07,05,189,,08,67,022,,09,06,186,,0*7C[2021-08-10 01:38:07.322]
$GBGSV,4,3,16,10,15,210,,13,60,320,,16,22,174,,19,60,232,22,0*7C[2021-08-10 01:38:07.322]
$GBGSV,4,4,16,20,63,046,,22,08,229,,29,70,170,,30,17,145,15,0*7F[2021-08-10 01:38:07.322]
$GNRMC,053810.00,A,4006.53508,N,11617.92069,E,0.232,,100821,,,A,V*1F[2021-08-10 01:38:08.326]
$GNGGA,053810.00,4006.53508,N,11617.92069,E,1,10,1.62,44.9,M,,M,,*63[2021-08-10 01:38:08.326]
$GNGSA,A,3,05,02,06,13,20,25,29,12,,,,,2.50,1.62,1.90,1*05[2021-08-10 01:38:08.326]
$GNGSA,A,3,19,30,,,,,,,,,,,2.50,1.62,1.90,4*05[2021-08-10 01:38:08.326]
$GPGSV,3,1,12,02,69,082,24,05,55,268,33,06,31,103,27,12,08,231,20,0*66[2021-08-10 01:38:08.326]
$GPGSV,3,2,12,13,30,176,29,20,74,358,20,25,10,262,20,07,09,074,,0*6F[2021-08-10 01:38:08.326]
$GPGSV,3,3,12,09,12,039,,15,11,204,,29,33,312,13,30,07,108,,0*60[2021-08-10 01:38:08.326]
$GBGSV,4,1,16,01,35,140,,02,34,224,,03,45,189,,04,26,123,,0*74[2021-08-10 01:38:08.326]
$GBGSV,4,2,16,06,18,178,,07,05,189,,08,67,022,,09,06,186,,0*7C[2021-08-10 01:38:08.326]
$GBGSV,4,3,16,10,15,210,,13,60,320,,16,22,174,,19,60,232,24,0*7A[2021-08-10 01:38:08.326]
$GBGSV,4,4,16,20,63,046,,22,08,229,,29,70,170,,30,17,145,17,0*7D[2021-08-10 01:38:08.326]
$GNRMC,053811.00,A,4006.53503,N,11617.92067,E,0.521,,100821,,,A,V*1E[2021-08-10 01:38:09.328]
$GNGGA,053811.00,4006.53503,N,11617.92067,E,1,10,1.68,44.9,M,,M,,*6D[2021-08-10 01:38:09.328]
$GNGSA,A,3,05,02,06,13,20,25,29,12,,,,,2.58,1.68,1.96,1*01[2021-08-10 01:38:09.328]
$GNGSA,A,3,19,30,,,,,,,,,,,2.58,1.68,1.96,4*01[2021-08-10 01:38:09.328]
$GPGSV,3,1,12,02,69,082,24,05,55,268,34,06,31,103,26,12,08,231,18,0*6B[2021-08-10 01:38:09.328]
$GPGSV,3,2,12,13,30,176,29,25,10,262,20,07,09,074,,09,12,039,,0*62[2021-08-10 01:38:09.328]
$GPGSV,3,3,12,15,11,204,,20,74,358,20,29,33,312,13,30,07,108,,0*6D[2021-08-10 01:38:09.328]
$GBGSV,4,1,16,01,35,140,,02,34,224,,03,45,189,,04,26,123,,0*74[2021-08-10 01:38:09.328]
$GBGSV,4,2,16,06,18,178,,07,05,189,,08,67,022,,09,06,186,,0*7C[2021-08-10 01:38:09.328]
$GBGSV,4,3,16,10,15,210,,13,60,320,,16,22,174,,19,60,232,24,0*7A[2021-08-10 01:38:09.328]
$GBGSV,4,4,16,20,63,046,,22,08,229,,29,70,170,,30,17,145,17,0*7D[2021-08-10 01:38:09.328]
$GNRMC,053812.00,A,4006.53500,N,11617.92057,E,0.668,,100821,,,A,V*13[2021-08-10 01:38:10.331]
$GNGGA,053812.00,4006.53500,N,11617.92057,E,1,10,1.62,45.1,M,,M,,*6D[2021-08-10 01:38:10.331]
$GNGSA,A,3,05,02,06,13,20,25,29,12,,,,,2.50,1.62,1.90,1*05[2021-08-10 01:38:10.331]
$GNGSA,A,3,19,30,,,,,,,,,,,2.50,1.62,1.90,4*05[2021-08-10 01:38:10.331]
$GPGSV,3,1,12,02,69,082,23,05,55,268,33,06,31,103,25,12,08,231,18,0*68[2021-08-10 01:38:10.331]
$GPGSV,3,2,12,13,30,176,28,20,74,359,20,25,10,262,19,07,09,074,,0*65[2021-08-10 01:38:10.331]
$GPGSV,3,3,12,09,12,039,,15,11,204,,29,33,312,13,30,07,108,,0*60[2021-08-10 01:38:10.331]
$GBGSV,4,1,16,01,35,140,,02,34,224,,03,45,189,,04,26,123,,0*74[2021-08-10 01:38:10.331]
$GBGSV,4,2,16,06,18,178,,07,05,189,,08,67,022,,09,06,186,,0*7C[2021-08-10 01:38:10.331]
$GBGSV,4,3,16,10,15,210,,13,60,320,,16,22,174,,19,60,232,21,0*7F[2021-08-10 01:38:10.331]
$GBGSV,4,4,16,20,63,046,,22,08,229,,29,70,170,,30,17,145,16,0*7C[2021-08-10 01:38:10.331]
$GNRMC,053813.00,A,4006.53530,N,11617.92051,E,0.674,,100821,,,A,V*1A[2021-08-10 01:38:11.334]
$GNGGA,053813.00,4006.53530,N,11617.92051,E,1,10,1.62,44.1,M,,M,,*68[2021-08-10 01:38:11.334]
$GNGSA,A,3,05,02,06,13,20,25,29,12,,,,,2.50,1.62,1.90,1*05[2021-08-10 01:38:11.334]
$GNGSA,A,3,19,30,,,,,,,,,,,2.50,1.62,1.90,4*05[2021-08-10 01:38:11.334]
$GPGSV,3,1,12,02,69,082,24,05,55,268,33,06,31,103,25,12,08,231,18,0*6F[2021-08-10 01:38:11.334]
$GPGSV,3,2,12,13,30,176,27,20,74,359,20,25,10,262,19,07,09,074,,0*6A[2021-08-10 01:38:11.334]
$GPGSV,3,3,12,09,12,039,,15,11,204,,29,33,312,13,30,07,108,,0*60[2021-08-10 01:38:11.334]
$GBGSV,4,1,16,01,35,140,,02,34,224,,03,45,189,,04,26,123,,0*74[2021-08-10 01:38:11.334]
$GBGSV,4,2,16,06,18,178,,07,05,189,,08,67,022,,09,06,186,,0*7C[2021-08-10 01:38:11.334]
$GBGSV,4,3,16,10,15,210,,13,60,320,,16,22,174,,19,61,232,21,0*7E[2021-08-10 01:38:11.334]
$GBGSV,4,4,16,20,63,046,,22,08,229,,29,70,170,,30,17,145,16,0*7C[2021-08-10 01:38:11.334]
$GNRMC,053814.00,A,4006.53538,N,11617.92057,E,0.387,,100821,,,A,V*1A[2021-08-10 01:38:12.322]
$GNGGA,053814.00,4006.53538,N,11617.92057,E,1,10,1.62,44.2,M,,M,,*62[2021-08-10 01:38:12.322]
$GNGSA,A,3,05,02,06,13,20,25,29,12,,,,,2.50,1.62,1.90,1*05[2021-08-10 01:38:12.322]
$GNGSA,A,3,19,30,,,,,,,,,,,2.50,1.62,1.90,4*05[2021-08-10 01:38:12.322]
$GPGSV,3,1,12,02,69,082,24,05,55,268,33,06,31,103,25,12,08,231,18,0*6F[2021-08-10 01:38:12.322]
$GPGSV,3,2,12,13,30,176,27,20,74,359,20,25,10,262,19,07,09,073,,0*6D[2021-08-10 01:38:12.322]
$GPGSV,3,3,12,09,12,039,,15,11,204,,29,33,312,17,30,07,108,,0*64[2021-08-10 01:38:12.322]
$GBGSV,4,1,16,01,35,140,,02,34,224,,03,45,189,,04,26,123,,0*74[2021-08-10 01:38:12.322]
$GBGSV,4,2,16,06,18,178,,07,05,189,,08,67,022,,09,06,186,,0*7C[2021-08-10 01:38:12.322]
$GBGSV,4,3,16,10,15,210,,13,60,320,,16,22,174,,19,61,232,23,0*7C[2021-08-10 01:38:12.322]
$GBGSV,4,4,16,20,63,046,,22,08,229,,29,70,170,,30,17,145,17,0*7D[2021-08-10 01:38:12.322]
$GNRMC,053815.00,A,4006.53555,N,11617.92087,E,0.749,,100821,,,A,V*1B[2021-08-10 01:38:13.325]
$GNGGA,053815.00,4006.53555,N,11617.92087,E,1,10,1.62,44.8,M,,M,,*6F[2021-08-10 01:38:13.325]
$GNGSA,A,3,05,02,06,13,20,25,29,12,,,,,2.50,1.62,1.90,1*05[2021-08-10 01:38:13.325]
$GNGSA,A,3,19,30,,,,,,,,,,,2.50,1.62,1.90,4*05[2021-08-10 01:38:13.325]
$GPGSV,3,1,12,02,69,082,25,05,55,268,32,06,31,103,26,12,08,231,20,0*67[2021-08-10 01:38:13.325]
$GPGSV,3,2,12,13,30,176,26,20,74,359,20,25,10,262,19,07,09,073,,0*6C[2021-08-10 01:38:13.325]
$GPGSV,3,3,12,09,12,039,,15,11,204,,29,33,312,17,30,07,108,,0*64[2021-08-10 01:38:13.325]
$GBGSV,4,1,16,01,35,140,,02,34,224,,03,45,189,,04,26,123,,0*74[2021-08-10 01:38:13.325]
$GBGSV,4,2,16,06,18,178,,07,05,189,,08,67,022,,09,06,186,,0*7C[2021-08-10 01:38:13.325]
$GBGSV,4,3,16,10,15,210,,13,60,320,,16,22,174,,19,61,232,24,0*7B[2021-08-10 01:38:13.325]
$GBGSV,4,4,16,20,63,046,,22,08,229,,29,70,170,,30,17,145,17,0*7D[2021-08-10 01:38:13.325]
$GNRMC,053816.00,A,4006.53574,N,11617.92129,E,0.967,,100821,,,A,V*1C[2021-08-10 01:38:14.327]
$GNGGA,053816.00,4006.53574,N,11617.92129,E,1,11,1.62,45.6,M,,M,,*64[2021-08-10 01:38:14.327]
$GNGSA,A,3,05,02,06,13,20,25,29,07,12,,,,2.50,1.62,1.90,1*02[2021-08-10 01:38:14.327]
$GNGSA,A,3,19,30,,,,,,,,,,,2.50,1.62,1.90,4*05[2021-08-10 01:38:14.327]
$GPGSV,3,1,12,02,69,082,26,05,55,268,32,06,31,103,24,12,08,231,20,0*66[2021-08-10 01:38:14.327]
$GPGSV,3,2,12,13,30,176,28,20,74,359,20,25,10,262,19,07,09,073,15,0*66[2021-08-10 01:38:14.327]
$GPGSV,3,3,12,09,12,039,,15,11,204,,29,33,312,11,30,07,108,,0*62[2021-08-10 01:38:14.327]
$GBGSV,4,1,16,01,35,140,,02,34,224,,03,45,189,,04,26,123,,0*74[2021-08-10 01:38:14.327]
$GBGSV,4,2,16,06,18,178,,07,05,189,,08,67,022,,09,06,186,,0*7C[2021-08-10 01:38:14.327]
$GBGSV,4,3,16,10,15,210,,13,60,320,,16,22,174,,19,61,232,24,0*7B[2021-08-10 01:38:14.327]
$GBGSV,4,4,16,20,63,046,,22,08,229,,29,70,170,,30,17,145,18,0*72[2021-08-10 01:38:14.327]
$GNRMC,053817.00,A,4006.53611,N,11617.92156,E,1.337,,100821,,,A,V*1B[2021-08-10 01:38:15.329]
$GNGGA,053817.00,4006.53611,N,11617.92156,E,1,11,1.55,46.1,M,,M,,*6D[2021-08-10 01:38:15.329]
$GNGSA,A,3,05,02,06,13,20,25,29,07,12,,,,2.24,1.55,1.61,1*0B[2021-08-10 01:38:15.329]
$GNGSA,A,3,19,30,,,,,,,,,,,2.24,1.55,1.61,4*0C[2021-08-10 01:38:15.329]
$GPGSV,3,1,12,02,69,082,25,05,55,268,32,06,31,103,25,12,08,231,19,0*6E[2021-08-10 01:38:15.329]
$GPGSV,3,2,12,13,30,176,26,20,74,359,18,25,10,262,19,07,09,073,12,0*64[2021-08-10 01:38:15.329]
$GPGSV,3,3,12,09,12,039,,15,11,204,,29,33,312,11,30,07,108,,0*62[2021-08-10 01:38:15.329]
$GBGSV,4,1,16,19,61,232,23,30,17,145,18,01,35,140,,02,34,224,,0*77[2021-08-10 01:38:15.329]
$GBGSV,4,2,16,03,45,189,,04,26,123,,06,18,178,,07,05,189,,0*77[2021-08-10 01:38:15.329]
$GBGSV,4,3,16,08,67,022,,09,06,186,,10,15,210,,13,60,320,,0*7D[2021-08-10 01:38:15.329]
$GBGSV,4,4,16,16,22,174,,20,63,046,,22,08,229,,29,70,170,,0*7B[2021-08-10 01:38:15.329]
$GNRMC,053818.00,A,4006.53674,N,11617.92178,E,1.824,,100821,,,A,V*12[2021-08-10 01:38:16.333]
$GNGGA,053818.00,4006.53674,N,11617.92178,E,1,11,1.62,45.9,M,,M,,*62[2021-08-10 01:38:16.333]
$GNGSA,A,3,05,02,06,13,20,25,29,07,12,,,,2.49,1.62,1.89,1*02[2021-08-10 01:38:16.333]
$GNGSA,A,3,19,30,,,,,,,,,,,2.49,1.62,1.89,4*05[2021-08-10 01:38:16.333]
$GPGSV,3,1,12,02,69,082,27,05,55,268,31,06,31,103,24,12,08,231,19,0*6E[2021-08-10 01:38:16.333]
$GPGSV,3,2,12,13,30,176,27,20,74,359,18,25,10,262,20,07,09,073,12,0*6F[2021-08-10 01:38:16.333]
$GPGSV,3,3,12,09,12,039,,15,11,204,,29,33,312,11,30,07,108,,0*62[2021-08-10 01:38:16.333]
$GBGSV,4,1,16,01,35,140,,02,34,224,,03,45,189,,04,26,123,,0*74[2021-08-10 01:38:16.333]
$GBGSV,4,2,16,06,18,178,,07,05,189,,08,67,022,,09,06,186,,0*7C[2021-08-10 01:38:16.333]
$GBGSV,4,3,16,10,15,210,,13,60,320,,16,22,174,,19,61,232,25,0*7A[2021-08-10 01:38:16.333]
$GBGSV,4,4,16,20,63,046,,22,08,229,,29,70,170,,30,17,145,15,0*7F[2021-08-10 01:38:16.333]
$GNRMC,053819.00,A,4006.53721,N,11617.92147,E,2.707,,100821,,,A,V*13[2021-08-10 01:38:17.320]
$GNGGA,053819.00,4006.53721,N,11617.92147,E,1,11,1.26,46.6,M,,M,,*62[2021-08-10 01:38:17.320]
$GNGSA,A,3,05,02,06,13,20,25,29,07,12,,,,1.71,1.26,1.16,1*0C[2021-08-10 01:38:17.320]
$GNGSA,A,3,19,30,,,,,,,,,,,1.71,1.26,1.16,4*0B[2021-08-10 01:38:17.320]
$GPGSV,3,1,12,02,69,082,27,05,55,268,32,07,09,073,12,12,08,231,19,0*64[2021-08-10 01:38:17.320]
$GPGSV,3,2,12,13,30,176,29,20,74,359,20,25,10,262,20,06,31,103,24,0*63[2021-08-10 01:38:17.320]
$GPGSV,3,3,12,09,12,039,,15,11,204,,29,33,312,11,30,07,108,,0*62[2021-08-10 01:38:17.320]
$GBGSV,4,1,16,01,35,140,,02,34,224,,03,45,189,,04,26,123,,0*74[2021-08-10 01:38:17.320]
$GBGSV,4,2,16,06,18,178,,07,05,189,,08,67,022,,09,06,186,,0*7C[2021-08-10 01:38:17.320]
$GBGSV,4,3,16,10,15,210,,13,60,320,,16,22,174,,19,61,232,24,0*7B[2021-08-10 01:38:17.320]
$GBGSV,4,4,16,20,63,046,,22,08,229,,29,70,170,,30,17,145,15,0*7F[2021-08-10 01:38:17.320]
$GNRMC,053820.00,A,4006.53787,N,11617.92106,E,2.470,,100821,,,A,V*13[2021-08-10 01:38:18.339]
$GNGGA,053820.00,4006.53787,N,11617.92106,E,1,11,1.78,46.9,M,,M,,*65[2021-08-10 01:38:18.339]
$GNGSA,A,3,05,02,06,13,20,25,29,07,12,,,,2.55,1.78,1.83,1*0E[2021-08-10 01:38:18.339]
$GNGSA,A,3,19,30,,,,,,,,,,,2.55,1.78,1.83,4*09[2021-08-10 01:38:18.339]
$GPGSV,3,1,12,02,69,082,24,05,55,268,32,12,08,231,19,13,30,176,28,0*65[2021-08-10 01:38:18.339]
$GPGSV,3,2,12,20,74,359,20,25,10,262,20,06,31,103,25,07,09,073,12,0*61[2021-08-10 01:38:18.339]
$GPGSV,3,3,12,09,12,039,,15,11,204,,29,33,312,11,30,07,108,,0*62[2021-08-10 01:38:18.339]
$GBGSV,4,1,16,19,61,232,25,30,17,145,15,01,35,140,,02,34,224,,0*7C[2021-08-10 01:38:18.339]
$GBGSV,4,2,16,03,45,189,,04,26,123,,06,18,178,,07,05,189,,0*77[2021-08-10 01:38:18.339]
$GBGSV,4,3,16,08,67,022,,09,06,186,,10,15,210,,13,60,320,,0*7D[2021-08-10 01:38:18.339]
$GBGSV,4,4,16,16,22,174,,20,63,046,,22,08,229,,29,70,170,,0*7B[2021-08-10 01:38:18.339]
$GNRMC,053821.00,A,4006.53835,N,11617.92062,E,1.451,,100821,,,A,V*17[2021-08-10 01:38:19.326]
$GNGGA,053821.00,4006.53835,N,11617.92062,E,1,11,1.78,47.4,M,,M,,*6D[2021-08-10 01:38:19.326]
$GNGSA,A,3,05,02,06,13,20,25,29,07,12,,,,2.55,1.78,1.83,1*0E[2021-08-10 01:38:19.326]
$GNGSA,A,3,19,30,,,,,,,,,,,2.55,1.78,1.83,4*09[2021-08-10 01:38:19.326]
$GPGSV,3,1,12,02,69,082,25,05,55,268,32,12,08,231,20,13,30,176,30,0*67[2021-08-10 01:38:19.326]
$GPGSV,3,2,12,20,74,359,18,25,10,262,20,06,31,103,23,07,09,073,12,0*6C[2021-08-10 01:38:19.326]
$GPGSV,3,3,12,09,12,039,,15,11,204,,29,33,312,13,30,07,108,,0*60[2021-08-10 01:38:19.326]
$GBGSV,4,1,16,19,61,232,25,30,17,145,15,01,35,140,,02,34,224,,0*7C[2021-08-10 01:38:19.326]
$GBGSV,4,2,16,03,45,189,,04,26,123,,06,18,178,,07,05,189,,0*77[2021-08-10 01:38:19.326]
$GBGSV,4,3,16,08,67,022,,09,06,186,,10,15,210,,13,60,320,,0*7D[2021-08-10 01:38:19.326]
$GBGSV,4,4,16,16,22,174,,20,63,046,,22,08,229,,29,70,170,,0*7B[2021-08-10 01:38:19.326]
$GNRMC,053822.00,A,4006.53850,N,11617.92002,E,1.298,,100821,,,A,V*12[2021-08-10 01:38:20.330]
$GNGGA,053822.00,4006.53850,N,11617.92002,E,1,11,1.18,48.2,M,,M,,*64[2021-08-10 01:38:20.330]
$GNGSA,A,3,05,02,06,13,20,25,29,07,12,,,,1.61,1.18,1.10,1*06[2021-08-10 01:38:20.330]
$GNGSA,A,3,19,30,,,,,,,,,,,1.61,1.18,1.10,4*01[2021-08-10 01:38:20.330]
$GPGSV,3,1,12,02,69,082,25,05,55,268,32,07,09,073,15,12,08,231,20,0*6B[2021-08-10 01:38:20.330]
$GPGSV,3,2,12,13,30,176,30,20,74,359,18,25,10,262,19,06,31,103,23,0*6D[2021-08-10 01:38:20.330]
$GPGSV,3,3,12,09,12,039,,15,11,204,,29,33,312,13,30,07,108,,0*60[2021-08-10 01:38:20.330]
$GBGSV,4,1,16,19,61,232,24,30,17,145,15,01,35,140,,02,34,224,,0*7D[2021-08-10 01:38:20.330]
$GBGSV,4,2,16,03,45,189,,04,26,123,,06,18,178,,07,05,189,,0*77[2021-08-10 01:38:20.330]
$GBGSV,4,3,16,08,67,022,,09,06,186,,10,15,210,,13,60,320,,0*7D[2021-08-10 01:38:20.330]
$GBGSV,4,4,16,16,22,174,,20,63,046,,22,09,229,,29,70,170,,0*7A[2021-08-10 01:38:20.330]
$GNRMC,053823.00,A,4006.53878,N,11617.91963,E,0.789,,100821,,,A,V*10[2021-08-10 01:38:21.333]
$GNGGA,053823.00,4006.53878,N,11617.91963,E,1,11,1.78,48.3,M,,M,,*65[2021-08-10 01:38:21.333]
$GNGSA,A,3,05,02,06,13,20,25,29,07,12,,,,2.55,1.78,1.83,1*0E[2021-08-10 01:38:21.333]
$GNGSA,A,3,19,30,,,,,,,,,,,2.55,1.78,1.83,4*09[2021-08-10 01:38:21.333]
$GPGSV,3,1,12,02,69,082,25,05,55,268,32,12,08,231,21,13,30,176,29,0*6E[2021-08-10 01:38:21.333]
$GPGSV,3,2,12,20,74,359,18,25,10,262,19,06,31,103,23,07,09,073,15,0*61[2021-08-10 01:38:21.333]
$GPGSV,3,3,12,09,12,039,,15,11,204,,29,33,312,13,30,07,108,,0*60[2021-08-10 01:38:21.333]
$GBGSV,4,1,16,19,61,232,25,30,17,145,18,01,35,140,,02,34,224,,0*71[2021-08-10 01:38:21.333]
$GBGSV,4,2,16,03,45,189,,04,26,123,,06,18,178,,07,05,189,,0*77[2021-08-10 01:38:21.333]
$GBGSV,4,3,16,08,67,022,,09,06,186,,10,15,210,,13,60,320,,0*7D[2021-08-10 01:38:21.333]
$GBGSV,4,4,16,16,22,174,,20,63,046,,22,09,229,,29,70,170,,0*7A[2021-08-10 01:38:21.333]
$GNRMC,053824.00,A,4006.53887,N,11617.91940,E,0.719,,100821,,,A,V*1F[2021-08-10 01:38:22.319]
$GNGGA,053824.00,4006.53887,N,11617.91940,E,1,11,1.78,48.7,M,,M,,*67[2021-08-10 01:38:22.319]
$GNGSA,A,3,05,02,06,13,20,25,29,07,12,,,,2.55,1.78,1.83,1*0E[2021-08-10 01:38:22.319]
$GNGSA,A,3,19,30,,,,,,,,,,,2.55,1.78,1.83,4*09[2021-08-10 01:38:22.319]
$GPGSV,3,1,12,02,69,082,24,05,55,268,32,12,08,231,21,13,30,176,28,0*6E[2021-08-10 01:38:22.319]
$GPGSV,3,2,12,20,74,359,18,25,10,262,20,06,31,103,24,07,09,073,15,0*6C[2021-08-10 01:38:22.319]
$GPGSV,3,3,12,09,12,039,,15,11,204,,29,33,312,13,30,07,108,,0*60[2021-08-10 01:38:22.319]
$GBGSV,4,1,16,19,61,232,22,30,17,145,18,01,35,140,,02,34,224,,0*76[2021-08-10 01:38:22.319]
$GBGSV,4,2,16,03,45,189,,04,26,123,,06,18,178,,07,05,189,,0*77[2021-08-10 01:38:22.319]
$GBGSV,4,3,16,08,67,022,,09,06,186,,10,15,210,,13,60,320,,0*7D[2021-08-10 01:38:22.319]
$GBGSV,4,4,16,16,22,174,,20,63,046,,22,09,229,,29,70,170,,0*7A[2021-08-10 01:38:22.319]
$GNRMC,053825.00,A,4006.53892,N,11617.91939,E,0.507,,100821,,,A,V*19[2021-08-10 01:38:23.322]
$GNGGA,053825.00,4006.53892,N,11617.91939,E,1,11,1.78,48.5,M,,M,,*6E[2021-08-10 01:38:23.322]
$GNGSA,A,3,05,02,06,13,20,25,29,07,12,,,,2.55,1.78,1.83,1*0E[2021-08-10 01:38:23.322]
$GNGSA,A,3,19,30,,,,,,,,,,,2.55,1.78,1.83,4*09[2021-08-10 01:38:23.322]
$GPGSV,3,1,12,02,69,082,24,05,55,268,30,12,08,231,20,13,30,176,27,0*62[2021-08-10 01:38:23.322]
$GPGSV,3,2,12,20,74,359,16,25,10,262,20,06,31,103,25,07,09,073,15,0*63[2021-08-10 01:38:23.322]
$GPGSV,3,3,12,09,12,039,,15,11,204,,29,33,312,13,30,07,108,,0*60[2021-08-10 01:38:23.322]
$GBGSV,4,1,16,19,61,232,21,30,17,145,16,01,35,140,,02,34,224,,0*7B[2021-08-10 01:38:23.322]
$GBGSV,4,2,16,03,45,189,,04,26,123,,06,18,178,,07,05,189,,0*77[2021-08-10 01:38:23.322]
$GBGSV,4,3,16,08,67,022,,09,06,186,,10,15,210,,13,60,320,,0*7D[2021-08-10 01:38:23.322]
$GBGSV,4,4,16,16,22,174,,20,63,046,,22,09,229,,29,70,170,,0*7A[2021-08-10 01:38:23.322]
$GNRMC,053826.00,A,4006.53913,N,11617.91957,E,0.497,,100821,,,A,V*12[2021-08-10 01:38:24.337]
$GNGGA,053826.00,4006.53913,N,11617.91957,E,1,11,1.55,48.3,M,,M,,*64[2021-08-10 01:38:24.337]
$GNGSA,A,3,05,02,06,13,20,25,29,07,12,,,,2.23,1.55,1.61,1*0C[2021-08-10 01:38:24.337]
$GNGSA,A,3,19,30,,,,,,,,,,,2.23,1.55,1.61,4*0B[2021-08-10 01:38:24.337]
$GPGSV,3,1,12,02,69,082,26,05,55,268,30,06,31,103,25,12,08,231,20,0*65[2021-08-10 01:38:24.337]
$GPGSV,3,2,12,13,30,176,25,20,74,359,16,25,10,262,17,07,09,073,15,0*60[2021-08-10 01:38:24.337]
$GPGSV,3,3,12,09,12,039,,15,11,204,,29,33,312,12,30,07,108,,0*61[2021-08-10 01:38:24.337]
$GBGSV,4,1,16,19,61,232,23,30,17,145,16,01,35,140,,02,34,224,,0*79[2021-08-10 01:38:24.337]
$GBGSV,4,2,16,03,45,189,,04,26,123,,06,18,178,,07,05,189,,0*77[2021-08-10 01:38:24.337]
$GBGSV,4,3,16,08,67,022,,09,06,186,,10,15,210,,13,60,320,,0*7D[2021-08-10 01:38:24.337]
$GBGSV,4,4,16,16,22,174,,20,63,046,,22,09,229,,29,70,170,,0*7A[2021-08-10 01:38:24.337]
$GNRMC,053827.00,A,4006.53925,N,11617.91964,E,0.337,,100821,,,A,V*1B[2021-08-10 01:38:25.322]
$GNGGA,053827.00,4006.53925,N,11617.91964,E,1,11,2.57,48.5,M,,M,,*67[2021-08-10 01:38:25.322]
$GNGSA,A,3,05,02,06,13,20,25,29,07,12,,,,4.13,2.57,3.24,1*0B[2021-08-10 01:38:25.322]
$GNGSA,A,3,19,30,,,,,,,,,,,4.13,2.57,3.24,4*0C[2021-08-10 01:38:25.322]
$GPGSV,3,1,12,02,69,082,26,05,55,268,30,12,08,231,20,13,30,176,26,0*61[2021-08-10 01:38:25.322]
$GPGSV,3,2,12,20,74,359,10,25,10,262,17,06,31,103,26,07,09,073,11,0*66[2021-08-10 01:38:25.322]
$GPGSV,3,3,12,09,12,039,,15,11,204,,29,33,312,12,30,07,108,,0*61[2021-08-10 01:38:25.322]
$GBGSV,4,1,16,01,35,140,,02,34,224,,03,45,189,,04,26,123,,0*74[2021-08-10 01:38:25.322]
$GBGSV,4,2,16,06,18,178,,07,05,189,,08,67,022,,09,06,186,,0*7C[2021-08-10 01:38:25.322]
$GBGSV,4,3,16,10,15,210,,13,60,320,,16,22,174,,19,61,232,23,0*7C[2021-08-10 01:38:25.322]
$GBGSV,4,4,16,20,63,046,,22,09,229,,29,70,170,,30,17,145,07,0*7D[2021-08-10 01:38:25.322]
$GNRMC,053828.00,A,4006.53921,N,11617.91985,E,1.056,,100821,,,A,V*1A[2021-08-10 01:38:26.323]
$GNGGA,053828.00,4006.53921,N,11617.91985,E,1,11,2.57,48.3,M,,M,,*65[2021-08-10 01:38:26.323]
$GNGSA,A,3,05,02,06,13,20,25,29,07,12,,,,4.13,2.57,3.24,1*0B[2021-08-10 01:38:26.323]
$GNGSA,A,3,19,30,,,,,,,,,,,4.13,2.57,3.24,4*0C[2021-08-10 01:38:26.323]
$GPGSV,3,1,12,02,69,082,25,05,55,268,30,12,08,231,20,13,30,176,26,0*62[2021-08-10 01:38:26.323]
$GPGSV,3,2,12,20,74,359,10,25,10,262,19,06,31,103,25,07,09,073,11,0*6B[2021-08-10 01:38:26.323]
$GPGSV,3,3,12,09,12,039,,15,11,204,,29,33,312,12,30,07,108,,0*61[2021-08-10 01:38:26.323]
$GBGSV,4,1,16,01,35,140,,02,34,224,,03,45,189,,04,26,123,,0*74[2021-08-10 01:38:26.323]
$GBGSV,4,2,16,06,18,178,,07,05,189,,08,67,022,,09,06,186,,0*7C[2021-08-10 01:38:26.323]
$GBGSV,4,3,16,10,15,210,,13,60,320,,16,22,174,,19,61,232,24,0*7B[2021-08-10 01:38:26.323]
$GBGSV,4,4,16,20,63,046,,22,09,229,,29,70,170,,30,17,145,07,0*7D[2021-08-10 01:38:26.323]
$GNRMC,053829.00,A,4006.53895,N,11617.92016,E,1.978,,100821,,,A,V*10[2021-08-10 01:38:27.325]
$GNGGA,053829.00,4006.53895,N,11617.92016,E,1,11,1.68,48.0,M,,M,,*66[2021-08-10 01:38:27.325]
$GNGSA,A,3,05,02,06,13,20,25,29,07,12,,,,2.58,1.68,1.95,1*05[2021-08-10 01:38:27.325]
$GNGSA,A,3,19,30,,,,,,,,,,,2.58,1.68,1.95,4*02[2021-08-10 01:38:27.325]
$GPGSV,3,1,12,02,69,082,27,05,55,268,29,06,31,103,26,12,08,231,20,0*6F[2021-08-10 01:38:27.325]
$GPGSV,3,2,12,13,30,176,26,25,10,262,19,07,09,073,11,09,12,039,,0*60[2021-08-10 01:38:27.325]
$GPGSV,3,3,12,15,11,204,,20,74,359,10,29,33,312,12,30,07,108,,0*6E[2021-08-10 01:38:27.325]
$GBGSV,4,1,16,01,35,140,,02,34,224,,03,45,189,,04,26,123,,0*74[2021-08-10 01:38:27.325]
$GBGSV,4,2,16,06,18,178,,07,05,189,,08,67,022,,09,06,186,,0*7C[2021-08-10 01:38:27.325]
$GBGSV,4,3,16,10,15,210,,13,60,320,,16,22,174,,19,61,232,22,0*7D[2021-08-10 01:38:27.325]
$GBGSV,4,4,16,20,63,046,,22,09,229,,29,69,170,,30,17,145,07,0*75[2021-08-10 01:38:27.325]
$GNRMC,053830.00,A,4006.53841,N,11617.92048,E,2.149,,100821,,,A,V*13[2021-08-10 01:38:28.327]
$GNGGA,053830.00,4006.53841,N,11617.92048,E,1,11,1.30,48.1,M,,M,,*60[2021-08-10 01:38:28.327]
$GNGSA,A,3,05,02,06,13,20,25,29,07,12,,,,2.28,1.30,1.87,1*0C[2021-08-10 01:38:28.327]
$GNGSA,A,3,19,30,,,,,,,,,,,2.28,1.30,1.87,4*0B[2021-08-10 01:38:28.327]
$GPGSV,3,1,12,02,69,082,26,05,55,268,29,06,31,103,24,12,08,231,20,0*6C[2021-08-10 01:38:28.327]
$GPGSV,3,2,12,13,30,176,27,25,10,262,17,29,33,312,12,07,09,073,11,0*67[2021-08-10 01:38:28.327]
$GPGSV,3,3,12,09,12,039,,15,11,204,,20,74,359,10,30,07,108,,0*66[2021-08-10 01:38:28.327]
$GBGSV,4,1,16,01,35,140,,02,34,224,,03,45,189,,04,26,123,,0*74[2021-08-10 01:38:28.327]
$GBGSV,4,2,16,06,18,178,,07,05,189,,08,67,022,,09,06,186,,0*7C[2021-08-10 01:38:28.327]
$GBGSV,4,3,16,10,15,210,,13,60,320,,16,22,174,,19,61,232,22,0*7D[2021-08-10 01:38:28.327]
$GBGSV,4,4,16,20,63,046,,22,09,229,,29,69,170,,30,17,145,07,0*75[2021-08-10 01:38:28.327]
$GNRMC,053831.00,A,4006.53813,N,11617.92066,E,1.285,,100821,,,A,V*19[2021-08-10 01:38:29.328]
$GNGGA,053831.00,4006.53813,N,11617.92066,E,1,11,1.62,47.9,M,,M,,*6A[2021-08-10 01:38:29.328]
$GNGSA,A,3,05,02,06,13,20,25,29,07,12,,,,2.49,1.62,1.89,1*02[2021-08-10 01:38:29.328]
$GNGSA,A,3,19,30,,,,,,,,,,,2.49,1.62,1.89,4*05[2021-08-10 01:38:29.328]
$GPGSV,3,1,12,02,69,083,26,05,55,268,29,06,31,103,24,12,08,231,19,0*67[2021-08-10 01:38:29.328]
$GPGSV,3,2,12,13,30,176,27,20,74,359,10,25,10,262,17,07,09,073,11,0*60[2021-08-10 01:38:29.328]
$GPGSV,3,3,12,09,12,039,,15,11,204,,29,33,312,09,30,07,108,,0*6B[2021-08-10 01:38:29.328]
$GBGSV,4,1,16,01,35,140,,02,34,224,,03,45,189,,04,26,123,,0*74[2021-08-10 01:38:29.328]
$GBGSV,4,2,16,06,18,178,,07,05,189,,08,67,022,,09,06,186,,0*7C[2021-08-10 01:38:29.328]
$GBGSV,4,3,16,10,15,210,,13,60,320,,16,22,174,,19,61,232,23,0*7C[2021-08-10 01:38:29.328]
$GBGSV,4,4,16,20,63,046,,22,09,229,,29,69,170,,30,17,145,07,0*75[2021-08-10 01:38:29.328]
$GNRMC,053832.00,A,4006.53802,N,11617.92078,E,0.716,,100821,,,A,V*1B[2021-08-10 01:38:30.330]
$GNGGA,053832.00,4006.53802,N,11617.92078,E,1,11,1.78,47.3,M,,M,,*67[2021-08-10 01:38:30.330]
$GNGSA,A,3,05,02,06,13,20,25,29,07,12,,,,2.55,1.78,1.83,1*0E[2021-08-10 01:38:30.330]
$GNGSA,A,3,19,30,,,,,,,,,,,2.55,1.78,1.83,4*09[2021-08-10 01:38:30.330]
$GPGSV,3,1,12,02,69,083,27,05,55,268,29,12,08,231,19,13,30,176,27,0*62[2021-08-10 01:38:30.330]
$GPGSV,3,2,12,20,74,359,16,25,10,262,18,06,31,103,25,07,09,073,15,0*68[2021-08-10 01:38:30.330]
$GPGSV,3,3,12,09,12,039,,15,11,204,,29,33,312,09,30,07,108,,0*6B[2021-08-10 01:38:30.330]
$GBGSV,4,1,16,19,61,232,23,30,17,145,13,01,35,140,,02,34,224,,0*7C[2021-08-10 01:38:30.330]
$GBGSV,4,2,16,03,45,189,,04,26,123,,06,18,178,,07,05,189,,0*77[2021-08-10 01:38:30.330]
$GBGSV,4,3,16,08,67,022,,09,06,186,,10,15,210,,13,60,320,,0*7D[2021-08-10 01:38:30.330]
$GBGSV,4,4,16,16,22,174,,20,63,046,,22,09,229,,29,69,170,,0*72[2021-08-10 01:38:30.330]
$GNRMC,053833.00,A,4006.53810,N,11617.92095,E,0.653,,100821,,,A,V*1A[2021-08-10 01:38:31.333]
$GNGGA,053833.00,4006.53810,N,11617.92095,E,1,11,1.78,47.0,M,,M,,*65[2021-08-10 01:38:31.333]
$GNGSA,A,3,05,02,06,13,20,25,29,07,12,,,,2.55,1.78,1.83,1*0E[2021-08-10 01:38:31.333]
$GNGSA,A,3,19,30,,,,,,,,,,,2.55,1.78,1.83,4*09[2021-08-10 01:38:31.333]
$GPGSV,3,1,12,02,69,083,27,05,55,268,29,12,08,231,20,13,30,176,27,0*68[2021-08-10 01:38:31.333]
$GPGSV,3,2,12,20,74,359,16,25,10,262,18,06,31,103,26,07,09,073,15,0*6B[2021-08-10 01:38:31.333]
$GPGSV,3,3,12,09,12,039,,15,11,204,,29,33,312,09,30,07,108,,0*6B[2021-08-10 01:38:31.333]
$GBGSV,4,1,16,19,61,232,23,30,17,145,13,01,35,140,,02,34,224,,0*7C[2021-08-10 01:38:31.333]
$GBGSV,4,2,16,03,45,189,,04,26,123,,06,18,178,,07,05,189,,0*77[2021-08-10 01:38:31.333]
$GBGSV,4,3,16,08,67,022,,09,06,186,,10,15,210,,13,60,320,,0*7D[2021-08-10 01:38:31.333]
$GBGSV,4,4,16,16,22,174,,20,63,046,,22,09,229,,29,69,170,,0*72[2021-08-10 01:38:31.333]
$GNRMC,053834.00,A,4006.53839,N,11617.92071,E,1.407,,100821,,,A,V*1E[2021-08-10 01:38:32.318]
$GNGGA,053834.00,4006.53839,N,11617.92071,E,1,11,1.26,46.4,M,,M,,*6D[2021-08-10 01:38:32.318]
$GNGSA,A,3,05,02,06,13,20,25,29,07,12,,,,1.71,1.26,1.16,1*0C[2021-08-10 01:38:32.318]
$GNGSA,A,3,19,30,,,,,,,,,,,1.71,1.26,1.16,4*0B[2021-08-10 01:38:32.318]
$GPGSV,3,1,12,02,69,083,26,05,55,268,29,07,09,073,15,12,08,231,20,0*63[2021-08-10 01:38:32.318]
$GPGSV,3,2,12,13,30,176,27,20,74,359,17,25,10,262,16,06,31,103,26,0*6E[2021-08-10 01:38:32.318]
$GPGSV,3,3,12,09,12,039,,15,11,204,,29,33,312,09,30,07,108,,0*6B[2021-08-10 01:38:32.318]
$GBGSV,4,1,16,01,35,140,,02,34,224,,03,45,189,,04,26,123,,0*74[2021-08-10 01:38:32.318]
$GBGSV,4,2,16,06,18,178,,07,05,189,,08,67,022,,09,06,186,,0*7C[2021-08-10 01:38:32.318]
$GBGSV,4,3,16,10,15,210,,13,60,320,,16,22,174,,19,61,232,24,0*7B[2021-08-10 01:38:32.318]
$GBGSV,4,4,16,20,63,046,,22,09,229,,29,69,170,,30,17,145,13,0*70[2021-08-10 01:38:32.318]
$GNRMC,053835.00,A,4006.53873,N,11617.92039,E,1.209,,100821,,,A,V*15[2021-08-10 01:38:33.321]
$GNGGA,053835.00,4006.53873,N,11617.92039,E,1,11,2.57,46.0,M,,M,,*6F[2021-08-10 01:38:33.321]
$GNGSA,A,3,05,02,06,13,20,25,29,07,12,,,,4.13,2.57,3.24,1*0B[2021-08-10 01:38:33.321]
$GNGSA,A,3,19,30,,,,,,,,,,,4.13,2.57,3.24,4*0C[2021-08-10 01:38:33.321]
$GPGSV,3,1,12,02,69,083,25,05,55,268,31,12,08,231,19,13,30,176,24,0*6A[2021-08-10 01:38:33.321]
$GPGSV,3,2,12,20,74,359,17,25,10,262,16,06,31,103,24,07,09,073,15,0*66[2021-08-10 01:38:33.321]
$GPGSV,3,3,12,09,12,039,,15,11,204,,29,33,312,09,30,07,108,,0*6B[2021-08-10 01:38:33.321]
$GBGSV,4,1,16,01,35,140,,02,34,224,,03,45,189,,04,26,123,,0*74[2021-08-10 01:38:33.321]
$GBGSV,4,2,16,06,18,178,,07,05,189,,08,67,022,,09,06,186,,0*7C[2021-08-10 01:38:33.321]
$GBGSV,4,3,16,10,15,210,,13,60,320,,16,22,174,,19,61,232,22,0*7D[2021-08-10 01:38:33.321]
$GBGSV,4,4,16,20,63,046,,22,09,229,,29,69,170,,30,17,145,13,0*70[2021-08-10 01:38:33.321]
$GNRMC,053836.00,A,4006.53880,N,11617.92017,E,0.476,,100821,,,A,V*19[2021-08-10 01:38:34.325]
$GNGGA,053836.00,4006.53880,N,11617.92017,E,1,11,1.17,45.9,M,,M,,*61[2021-08-10 01:38:34.325]
$GNGSA,A,3,05,02,06,13,20,25,29,07,12,,,,1.61,1.17,1.10,1*09[2021-08-10 01:38:34.325]
$GNGSA,A,3,19,30,,,,,,,,,,,1.61,1.17,1.10,4*0E[2021-08-10 01:38:34.325]
$GPGSV,3,1,12,02,69,083,26,05,55,268,31,07,09,073,15,12,08,231,19,0*60[2021-08-10 01:38:34.325]
$GPGSV,3,2,12,13,30,176,24,20,74,359,11,25,10,262,20,06,31,103,22,0*6A[2021-08-10 01:38:34.325]
$GPGSV,3,3,12,09,12,039,,15,11,204,,29,33,312,11,30,07,108,,0*62[2021-08-10 01:38:34.325]
$GBGSV,4,1,16,19,61,232,22,30,17,145,13,01,35,140,,02,34,224,,0*7D[2021-08-10 01:38:34.325]
$GBGSV,4,2,16,03,45,189,,04,26,123,,06,18,178,,07,05,189,,0*77[2021-08-10 01:38:34.325]
$GBGSV,4,3,16,08,67,022,,09,06,186,,10,15,210,,13,60,320,,0*7D[2021-08-10 01:38:34.325]
$GBGSV,4,4,16,16,22,174,,20,63,046,,22,09,229,,29,69,170,,0*72[2021-08-10 01:38:34.325]
$GNRMC,053837.00,A,4006.53841,N,11617.92036,E,2.552,,100821,,,A,V*13[2021-08-10 01:38:35.327]
$GNGGA,053837.00,4006.53841,N,11617.92036,E,1,11,1.16,45.7,M,,M,,*61[2021-08-10 01:38:35.327]
$GNGSA,A,3,05,02,06,13,20,25,29,07,12,,,,1.65,1.16,1.17,1*0B[2021-08-10 01:38:35.327]
$GNGSA,A,3,19,30,,,,,,,,,,,1.65,1.16,1.17,4*0C[2021-08-10 01:38:35.327]
$GPGSV,3,1,12,02,69,083,23,05,55,268,28,06,31,103,17,07,09,073,15,0*6E[2021-08-10 01:38:35.327]
$GPGSV,3,2,12,12,08,231,18,13,30,176,23,25,10,262,20,09,12,039,,0*67[2021-08-10 01:38:35.327]
$GPGSV,3,3,12,15,11,204,,20,74,359,11,29,33,312,11,30,07,108,,0*6C[2021-08-10 01:38:35.327]
$GBGSV,4,1,16,19,61,232,22,30,17,145,14,01,35,140,,02,34,224,,0*7A[2021-08-10 01:38:35.327]
$GBGSV,4,2,16,03,45,189,,04,26,123,,06,18,178,,07,05,189,,0*77[2021-08-10 01:38:35.327]
$GBGSV,4,3,16,08,67,022,,09,06,186,,10,15,210,,13,60,320,,0*7D[2021-08-10 01:38:35.327]
$GBGSV,4,4,16,16,22,174,,20,63,046,,22,09,229,,29,69,170,,0*72[2021-08-10 01:38:35.327]
$GNRMC,053838.00,A,4006.53783,N,11617.92046,E,2.829,,100821,,,A,V*1B[2021-08-10 01:38:36.329]
$GNGGA,053838.00,4006.53783,N,11617.92046,E,1,11,1.36,45.5,M,,M,,*68[2021-08-10 01:38:36.329]
$GNGSA,A,3,05,02,06,13,20,25,29,07,12,,,,1.91,1.36,1.34,1*03[2021-08-10 01:38:36.329]
$GNGSA,A,3,19,30,,,,,,,,,,,1.91,1.36,1.34,4*04[2021-08-10 01:38:36.329]
$GPGSV,3,1,12,02,69,083,26,05,55,268,30,07,09,073,15,12,08,231,18,0*60[2021-08-10 01:38:36.329]
$GPGSV,3,2,12,13,30,176,24,20,74,359,11,06,31,103,17,09,12,039,,0*6E[2021-08-10 01:38:36.329]
$GPGSV,3,3,12,15,11,204,,25,10,262,17,29,33,312,11,30,07,108,,0*64[2021-08-10 01:38:36.329]
$GBGSV,4,1,16,19,61,232,20,30,17,145,14,01,35,140,,02,34,224,,0*78[2021-08-10 01:38:36.329]
$GBGSV,4,2,16,03,45,189,,04,26,123,,06,18,178,,07,05,189,,0*77[2021-08-10 01:38:36.329]
$GBGSV,4,3,16,08,67,022,,09,06,186,,10,15,210,,13,60,320,,0*7D[2021-08-10 01:38:36.329]
$GBGSV,4,4,16,16,22,174,,20,63,046,,22,09,229,,29,69,170,,0*72[2021-08-10 01:38:36.329]
$GNRMC,053839.00,A,4006.53713,N,11617.92050,E,3.261,,100821,,,A,V*13[2021-08-10 01:38:37.331]
$GNGGA,053839.00,4006.53713,N,11617.92050,E,1,11,2.04,45.4,M,,M,,*64[2021-08-10 01:38:37.331]
$GNGSA,A,3,05,02,06,13,20,25,29,07,12,,,,3.02,2.04,2.22,1*0D[2021-08-10 01:38:37.331]
$GNGSA,A,3,19,30,,,,,,,,,,,3.02,2.04,2.22,4*0A[2021-08-10 01:38:37.331]
$GPGSV,3,1,12,02,69,083,24,05,55,268,30,06,31,103,21,12,08,231,19,0*68[2021-08-10 01:38:37.331]
$GPGSV,3,2,12,13,30,176,24,07,09,073,15,09,12,039,,15,11,204,,0*6C[2021-08-10 01:38:37.331]
$GPGSV,3,3,12,20,74,359,11,25,10,262,17,29,33,312,11,30,07,108,,0*68[2021-08-10 01:38:37.331]
$GBGSV,4,1,16,19,61,232,20,30,17,145,14,01,35,140,,02,34,224,,0*78[2021-08-10 01:38:37.331]
$GBGSV,4,2,16,03,45,189,,04,26,123,,06,18,178,,07,05,189,,0*77[2021-08-10 01:38:37.331]
$GBGSV,4,3,16,08,67,022,,09,06,186,,10,15,210,,13,60,320,,0*7D[2021-08-10 01:38:37.331]
$GBGSV,4,4,16,16,22,174,,20,63,046,,22,09,229,,29,69,170,,0*72[2021-08-10 01:38:37.331]
$GNRMC,053840.00,A,4006.53648,N,11617.92038,E,2.891,,100821,,,A,V*18[2021-08-10 01:38:38.334]
$GNGGA,053840.00,4006.53648,N,11617.92038,E,1,11,2.16,45.5,M,,M,,*69[2021-08-10 01:38:38.334]
$GNGSA,A,3,05,02,06,13,20,25,29,07,12,,,,3.29,2.16,2.49,1*0A[2021-08-10 01:38:38.334]
$GNGSA,A,3,19,30,,,,,,,,,,,3.29,2.16,2.49,4*0D[2021-08-10 01:38:38.334]
$GPGSV,3,1,12,02,69,083,25,05,55,268,29,12,08,231,19,13,30,176,25,0*62[2021-08-10 01:38:38.334]
$GPGSV,3,2,12,20,74,359,11,06,31,103,22,07,09,073,15,09,12,039,,0*61[2021-08-10 01:38:38.334]
$GPGSV,3,3,12,15,11,204,,25,10,262,18,29,33,312,11,30,07,108,,0*6B[2021-08-10 01:38:38.334]
$GBGSV,4,1,16,19,61,232,21,30,17,145,14,01,35,140,,02,34,224,,0*79[2021-08-10 01:38:38.334]
$GBGSV,4,2,16,03,45,189,,04,26,123,,06,18,178,,07,05,189,,0*77[2021-08-10 01:38:38.334]
$GBGSV,4,3,16,08,67,022,,09,06,186,,10,15,210,,13,60,320,,0*7D[2021-08-10 01:38:38.334]
$GBGSV,4,4,16,16,22,174,,20,63,046,,22,09,229,,29,69,170,,0*72[2021-08-10 01:38:38.334]
$GNRMC,053841.00,A,4006.53558,N,11617.92016,E,3.262,,100821,,,A,V*10[2021-08-10 01:38:39.329]
$GNGGA,053841.00,4006.53558,N,11617.92016,E,1,11,1.32,46.2,M,,M,,*67[2021-08-10 01:38:39.329]
$GNGSA,A,3,05,02,06,13,20,25,29,07,12,,,,1.90,1.32,1.37,1*05[2021-08-10 01:38:39.329]
$GNGSA,A,3,19,30,,,,,,,,,,,1.90,1.32,1.37,4*02[2021-08-10 01:38:39.329]
$GPGSV,3,1,12,02,69,083,24,05,55,268,30,06,31,103,22,07,09,073,15,0*66[2021-08-10 01:38:39.329]
$GPGSV,3,2,12,12,08,231,17,13,30,176,24,09,12,039,,15,11,204,,0*6F[2021-08-10 01:38:39.329]
$GPGSV,3,3,12,20,74,359,12,25,10,262,18,29,33,312,13,30,07,108,,0*66[2021-08-10 01:38:39.329]
$GBGSV,4,1,16,19,61,232,21,30,17,145,14,01,35,140,,02,34,224,,0*79[2021-08-10 01:38:39.329]
$GBGSV,4,2,16,03,45,189,,04,26,123,,06,18,178,,07,05,189,,0*77[2021-08-10 01:38:39.329]
$GBGSV,4,3,16,08,67,022,,09,06,186,,10,15,210,,13,60,320,,0*7D[2021-08-10 01:38:39.329]
$GBGSV,4,4,16,16,22,174,,20,63,046,,22,09,229,,29,69,170,,0*72[2021-08-10 01:38:39.329]
$GNRMC,053842.00,A,4006.53494,N,11617.92028,E,2.394,,100821,,,A,V*16[2021-08-10 01:38:40.331]
$GNGGA,053842.00,4006.53494,N,11617.92028,E,1,11,1.28,46.6,M,,M,,*67[2021-08-10 01:38:40.331]
$GNGSA,A,3,05,02,06,13,20,25,29,07,12,,,,1.84,1.28,1.32,1*0E[2021-08-10 01:38:40.331]
$GNGSA,A,3,19,30,,,,,,,,,,,1.84,1.28,1.32,4*09[2021-08-10 01:38:40.331]
$GPGSV,3,1,12,02,69,083,24,05,55,268,29,06,31,103,21,07,09,073,11,0*69[2021-08-10 01:38:40.331]
$GPGSV,3,2,12,12,08,231,17,13,30,176,23,20,74,359,12,09,12,039,,0*67[2021-08-10 01:38:40.331]
$GPGSV,3,3,12,15,11,204,,25,10,262,18,29,33,312,13,30,07,108,,0*69[2021-08-10 01:38:40.331]
$GBGSV,4,1,16,19,61,232,21,30,17,145,14,01,35,140,,02,34,224,,0*79[2021-08-10 01:38:40.331]
$GBGSV,4,2,16,03,45,189,,04,26,123,,06,18,178,,07,05,189,,0*77[2021-08-10 01:38:40.331]
$GBGSV,4,3,16,08,67,022,,09,06,186,,10,15,210,,13,60,320,,0*7D[2021-08-10 01:38:40.331]
$GBGSV,4,4,16,16,22,174,,20,63,046,,22,09,229,,29,69,170,,0*72[2021-08-10 01:38:40.331]
$GNRMC,053843.00,A,4006.53435,N,11617.92064,E,2.191,,100821,,,A,V*13[2021-08-10 01:38:41.317]
$GNGGA,053843.00,4006.53435,N,11617.92064,E,1,11,1.36,46.8,M,,M,,*64[2021-08-10 01:38:41.317]
$GNGSA,A,3,05,02,06,13,20,25,29,07,12,,,,1.91,1.36,1.35,1*02[2021-08-10 01:38:41.317]
$GNGSA,A,3,19,30,,,,,,,,,,,1.91,1.36,1.35,4*05[2021-08-10 01:38:41.317]
$GPGSV,3,1,12,02,69,083,26,05,55,268,30,06,31,103,21,07,09,073,11,0*63[2021-08-10 01:38:41.317]
$GPGSV,3,2,12,12,08,231,14,13,30,176,24,20,74,359,12,09,12,039,,0*63[2021-08-10 01:38:41.317]
$GPGSV,3,3,12,15,11,204,,25,10,262,18,29,33,312,13,30,07,108,,0*69[2021-08-10 01:38:41.317]
$GBGSV,4,1,16,01,35,140,,02,34,224,,03,45,189,,04,26,123,,0*74[2021-08-10 01:38:41.317]
$GBGSV,4,2,16,06,18,178,,07,05,189,,08,67,022,,09,06,186,,0*7C[2021-08-10 01:38:41.317]
$GBGSV,4,3,16,10,15,210,,13,60,320,,16,22,174,,19,61,232,21,0*7E[2021-08-10 01:38:41.317]
$GBGSV,4,4,16,20,63,046,,22,09,229,,29,69,170,,30,17,145,14,0*77[2021-08-10 01:38:41.317]
$GNRMC,053844.00,A,4006.53387,N,11617.92090,E,1.781,,100821,,,A,V*15[2021-08-10 01:38:42.334]
$GNGGA,053844.00,4006.53387,N,11617.92090,E,1,11,1.19,46.8,M,,M,,*6B[2021-08-10 01:38:42.334]
$GNGSA,A,3,05,02,06,13,20,25,29,07,12,,,,2.00,1.19,1.61,1*05[2021-08-10 01:38:42.334]
$GNGSA,A,3,19,30,,,,,,,,,,,2.00,1.19,1.61,4*02[2021-08-10 01:38:42.334]
$GPGSV,3,1,12,02,69,083,24,05,55,268,31,06,31,103,23,07,09,073,11,0*62[2021-08-10 01:38:42.334]
$GPGSV,3,2,12,13,30,176,25,20,74,359,12,29,33,312,13,09,12,039,,0*65[2021-08-10 01:38:42.334]
$GPGSV,3,3,12,12,08,231,14,15,11,204,,25,10,262,17,30,07,108,,0*61[2021-08-10 01:38:42.334]
$GBGSV,4,1,16,01,35,140,,02,34,224,,03,45,189,,04,26,123,,0*74[2021-08-10 01:38:42.334]
$GBGSV,4,2,16,06,18,178,,07,05,189,,08,67,022,,09,06,186,,0*7C[2021-08-10 01:38:42.334]
$GBGSV,4,3,16,10,15,210,,13,60,320,,16,22,174,,19,61,232,22,0*7D[2021-08-10 01:38:42.334]
$GBGSV,4,4,16,20,63,046,,22,09,229,,29,69,170,,30,17,145,14,0*77[2021-08-10 01:38:42.334]
$GNRMC,053845.00,A,4006.53350,N,11617.92081,E,0.848,,100821,,,A,V*15[2021-08-10 01:38:43.323]
$GNGGA,053845.00,4006.53350,N,11617.92081,E,1,11,1.56,47.5,M,,M,,*67[2021-08-10 01:38:43.323]
$GNGSA,A,3,05,02,06,13,20,25,29,07,12,,,,2.57,1.56,2.04,1*0C[2021-08-10 01:38:43.323]
$GNGSA,A,3,19,30,,,,,,,,,,,2.57,1.56,2.04,4*0B[2021-08-10 01:38:43.323]
$GPGSV,3,1,12,02,69,083,25,05,55,268,32,06,31,103,23,07,09,073,11,0*60[2021-08-10 01:38:43.323]
$GPGSV,3,2,12,13,30,176,24,20,74,359,12,09,12,039,,12,08,231,14,0*63[2021-08-10 01:38:43.323]
$GPGSV,3,3,12,15,11,204,,25,10,262,17,29,33,312,13,30,07,108,,0*66[2021-08-10 01:38:43.323]
$GBGSV,4,1,16,19,61,232,22,30,17,145,14,01,35,140,,02,34,224,,0*7A[2021-08-10 01:38:43.323]
$GBGSV,4,2,16,03,45,189,,04,26,123,,06,18,178,,07,05,189,,0*77[2021-08-10 01:38:43.323]
$GBGSV,4,3,16,08,67,022,,09,06,186,,10,15,210,,13,60,320,,0*7D[2021-08-10 01:38:43.323]
$GBGSV,4,4,16,16,22,174,,20,63,046,,22,09,229,,29,69,170,,0*72[2021-08-10 01:38:43.323]
$GNRMC,053846.00,A,4006.53323,N,11617.92083,E,1.573,,100821,,,A,V*14[2021-08-10 01:38:44.326]
$GNGGA,053846.00,4006.53323,N,11617.92083,E,1,11,1.59,47.0,M,,M,,*68[2021-08-10 01:38:44.326]
$GNGSA,A,3,05,02,06,13,20,25,29,07,12,,,,2.66,1.59,2.13,1*07[2021-08-10 01:38:44.326]
$GNGSA,A,3,19,30,,,,,,,,,,,2.66,1.59,2.13,4*00[2021-08-10 01:38:44.326]
$GPGSV,3,1,12,02,69,083,24,05,55,268,30,06,31,103,26,07,09,073,11,0*66[2021-08-10 01:38:44.326]
$GPGSV,3,2,12,13,30,176,25,09,12,039,,12,08,231,14,15,11,204,,0*6D[2021-08-10 01:38:44.326]
$GPGSV,3,3,12,20,74,359,11,25,10,262,18,29,33,312,16,30,07,108,,0*60[2021-08-10 01:38:44.326]
$GBGSV,4,1,16,19,61,232,23,30,17,145,14,01,35,140,,02,34,224,,0*7B[2021-08-10 01:38:44.326]
$GBGSV,4,2,16,03,45,189,,04,26,123,,06,18,178,,07,05,189,,0*77[2021-08-10 01:38:44.326]
$GBGSV,4,3,16,08,67,022,,09,06,186,,10,15,210,,13,60,320,,0*7D[2021-08-10 01:38:44.326]
$GBGSV,4,4,16,16,22,174,,20,63,046,,22,09,229,,29,69,170,,0*72[2021-08-10 01:38:44.326]
$GNRMC,053847.00,A,4006.53296,N,11617.92075,E,1.176,,100821,,,A,V*12[2021-08-10 01:38:45.329]
$GNGGA,053847.00,4006.53296,N,11617.92075,E,1,10,1.60,46.4,M,,M,,*61[2021-08-10 01:38:45.329]
$GNGSA,A,3,05,02,06,13,20,25,29,12,,,,,2.29,1.60,1.64,1*02[2021-08-10 01:38:45.329]
$GNGSA,A,3,19,30,,,,,,,,,,,2.29,1.60,1.64,4*02[2021-08-10 01:38:45.329]
$GPGSV,3,1,12,02,69,083,24,05,55,268,30,06,31,103,27,13,30,176,25,0*6B[2021-08-10 01:38:45.329]
$GPGSV,3,2,12,20,74,359,11,25,10,262,18,07,09,073,,09,12,039,,0*6A[2021-08-10 01:38:45.329]
$GPGSV,3,3,12,12,08,231,14,15,11,204,,29,33,312,16,30,07,108,,0*6B[2021-08-10 01:38:45.329]
$GBGSV,4,1,16,19,61,232,24,30,17,145,13,01,35,140,,02,34,224,,0*7B[2021-08-10 01:38:45.329]
$GBGSV,4,2,16,03,45,189,,04,26,123,,06,18,178,,07,05,189,,0*77[2021-08-10 01:38:45.329]
$GBGSV,4,3,16,08,67,022,,09,06,186,,10,15,210,,13,60,320,,0*7D[2021-08-10 01:38:45.329]
$GBGSV,4,4,16,16,23,174,,20,63,046,,22,09,229,,29,69,170,,0*73[2021-08-10 01:38:45.329]
$GNRMC,053848.00,A,4006.53265,N,11617.92095,E,1.421,,100821,,,A,V*18[2021-08-10 01:38:46.331]
$GNGGA,053848.00,4006.53265,N,11617.92095,E,1,10,2.52,46.1,M,,M,,*6B[2021-08-10 01:38:46.331]
$GNGSA,A,3,05,02,06,13,20,25,29,12,,,,,4.80,2.52,4.09,1*0B[2021-08-10 01:38:46.331]
$GNGSA,A,3,19,30,,,,,,,,,,,4.80,2.52,4.09,4*0B[2021-08-10 01:38:46.331]
$GPGSV,3,1,12,02,69,083,19,05,55,268,28,06,31,103,23,13,30,176,23,0*6E[2021-08-10 01:38:46.331]
$GPGSV,3,2,12,20,74,359,11,07,09,073,,09,12,039,,12,08,231,16,0*6F[2021-08-10 01:38:46.331]
$GPGSV,3,3,12,15,11,204,,25,10,262,13,29,33,312,16,30,07,108,,0*67[2021-08-10 01:38:46.331]
$GBGSV,4,1,16,19,61,232,20,30,17,145,13,01,35,140,,02,34,224,,0*7F[2021-08-10 01:38:46.331]
$GBGSV,4,2,16,03,45,189,,04,26,123,,06,18,178,,07,05,189,,0*77[2021-08-10 01:38:46.331]
$GBGSV,4,3,16,08,67,022,,09,06,186,,10,15,210,,13,60,320,,0*7D[2021-08-10 01:38:46.331]
$GBGSV,4,4,16,16,23,174,,20,63,046,,22,09,229,,29,69,170,,0*73[2021-08-10 01:38:46.331]
$GNRMC,053849.00,A,4006.53232,N,11617.92120,E,0.955,,100821,,,A,V*1B[2021-08-10 01:38:47.318]
$GNGGA,053849.00,4006.53232,N,11617.92120,E,1,10,1.25,46.3,M,,M,,*66[2021-08-10 01:38:47.318]
$GNGSA,A,3,05,02,06,13,20,25,29,12,,,,,2.05,1.25,1.63,1*0A[2021-08-10 01:38:47.318]
$GNGSA,A,3,19,30,,,,,,,,,,,2.05,1.25,1.63,4*0A[2021-08-10 01:38:47.318]
$GPGSV,3,1,12,02,69,083,19,05,55,268,29,06,31,103,27,12,08,231,16,0*67[2021-08-10 01:38:47.318]
$GPGSV,3,2,12,13,30,176,20,29,33,312,16,07,09,073,,09,12,039,,0*62[2021-08-10 01:38:47.318]
$GPGSV,3,3,12,15,11,204,,20,74,359,11,25,10,262,13,30,07,108,,0*65[2021-08-10 01:38:47.318]
$GBGSV,4,1,16,19,61,232,20,30,17,145,13,01,35,140,,02,34,224,,0*7F[2021-08-10 01:38:47.318]
$GBGSV,4,2,16,03,45,189,,04,26,123,,06,18,178,,07,05,189,,0*77[2021-08-10 01:38:47.318]
$GBGSV,4,3,16,08,67,022,,09,06,186,,10,15,210,,13,60,320,,0*7D[2021-08-10 01:38:47.318]
$GBGSV,4,4,16,16,23,174,,20,63,046,,22,09,229,,29,69,170,,0*73[2021-08-10 01:38:47.318]
$GNRMC,053850.00,A,4006.53169,N,11617.92125,E,2.349,,100821,,,A,V*1E[2021-08-10 01:38:48.320]
$GNGGA,053850.00,4006.53169,N,11617.92125,E,1,10,1.60,46.4,M,,M,,*60[2021-08-10 01:38:48.320]
$GNGSA,A,3,05,02,06,13,20,25,29,12,,,,,2.29,1.60,1.64,1*02[2021-08-10 01:38:48.320]
$GNGSA,A,3,19,30,,,,,,,,,,,2.29,1.60,1.64,4*02[2021-08-10 01:38:48.320]
$GPGSV,3,1,12,02,69,083,23,05,55,268,27,06,31,103,27,13,30,176,20,0*6F[2021-08-10 01:38:48.320]
$GPGSV,3,2,12,20,74,,11,25,10,262,13,07,09,073,,09,12,039,,0*5E[2021-08-10 01:38:48.320]
$GPGSV,3,3,12,12,08,231,09,15,11,204,,29,33,312,16,30,07,108,,0*67[2021-08-10 01:38:48.320]
$GBGSV,4,1,16,19,61,232,20,30,17,145,13,01,35,140,,02,34,224,,0*7F[2021-08-10 01:38:48.320]
$GBGSV,4,2,16,03,45,189,,04,26,123,,06,18,178,,07,05,189,,0*77[2021-08-10 01:38:48.320]
$GBGSV,4,3,16,08,67,022,,09,06,186,,10,15,210,,13,60,320,,0*7D[2021-08-10 01:38:48.320]
$GBGSV,4,4,16,16,23,174,,20,63,046,,22,09,229,,29,69,170,,0*73[2021-08-10 01:38:48.320]
$GNRMC,053851.00,A,4006.53126,N,11617.92088,E,2.678,,100821,,,A,V*15[2021-08-10 01:38:49.322]
$GNGGA,053851.00,4006.53126,N,11617.92088,E,1,10,1.63,46.5,M,,M,,*6E[2021-08-10 01:38:49.322]
$GNGSA,A,3,05,02,06,13,20,25,29,12,,,,,2.29,1.63,1.61,1*04[2021-08-10 01:38:49.322]
$GNGSA,A,3,19,30,,,,,,,,,,,2.29,1.63,1.61,4*04[2021-08-10 01:38:49.322]
$GPGSV,3,1,12,02,69,083,25,05,55,268,28,06,31,103,26,12,08,231,09,0*66[2021-08-10 01:38:49.322]
$GPGSV,3,2,12,13,30,176,19,25,10,262,13,07,09,073,,09,12,039,,0*66[2021-08-10 01:38:49.322]
$GPGSV,3,3,12,15,11,204,,20,74,,15,29,33,312,16,30,07,108,,0*50[2021-08-10 01:38:49.322]
$GBGSV,4,1,16,19,61,232,20,30,17,145,13,01,35,140,,02,34,224,,0*7F[2021-08-10 01:38:49.322]
$GBGSV,4,2,16,03,45,189,,04,26,123,,06,18,178,,07,05,189,,0*77[2021-08-10 01:38:49.322]
$GBGSV,4,3,16,08,67,022,,09,06,186,,10,15,210,,13,60,320,,0*7D[2021-08-10 01:38:49.322]
$GBGSV,4,4,16,16,23,174,,20,63,046,,22,09,229,,29,69,170,,0*73[2021-08-10 01:38:49.322]
$GNRMC,053852.00,A,4006.53081,N,11617.92026,E,2.512,,100821,,,A,V*11[2021-08-10 01:38:50.325]
$GNGGA,053852.00,4006.53081,N,11617.92026,E,1,10,2.62,46.6,M,,M,,*64[2021-08-10 01:38:50.325]
$GNGSA,A,3,05,02,06,13,20,25,29,12,,,,,4.86,2.62,4.09,1*0E[2021-08-10 01:38:50.325]
$GNGSA,A,3,19,30,,,,,,,,,,,4.86,2.62,4.09,4*0E[2021-08-10 01:38:50.325]
$GPGSV,3,1,12,02,69,083,22,05,55,268,28,06,31,103,25,13,30,176,19,0*69[2021-08-10 01:38:50.325]
$GPGSV,3,2,12,07,09,073,,09,12,039,,12,08,231,09,15,11,204,,0*6D[2021-08-10 01:38:50.325]
$GPGSV,3,3,12,20,74,,15,25,10,262,13,29,33,312,16,30,07,108,,0*50[2021-08-10 01:38:50.325]
$GBGSV,4,1,16,19,61,232,09,30,17,145,10,01,35,140,,02,34,224,,0*77[2021-08-10 01:38:50.325]
$GBGSV,4,2,16,03,45,189,,04,26,123,,06,18,178,,07,05,189,,0*77[2021-08-10 01:38:50.325]
$GBGSV,4,3,16,08,67,022,,09,06,186,,10,15,210,,13,60,320,,0*7D[2021-08-10 01:38:50.325]
$GBGSV,4,4,16,16,23,174,,20,63,046,,22,09,229,,29,69,170,,0*73[2021-08-10 01:38:50.325]
$GNRMC,053853.00,A,4006.53056,N,11617.91974,E,1.728,,100821,,,A,V*1F[2021-08-10 01:38:51.329]
$GNGGA,053853.00,4006.53056,N,11617.91974,E,1,10,1.70,46.8,M,,M,,*6C[2021-08-10 01:38:51.329]
$GNGSA,A,3,05,02,06,13,20,25,29,12,,,,,2.37,1.70,1.65,1*0D[2021-08-10 01:38:51.329]
$GNGSA,A,3,19,30,,,,,,,,,,,2.37,1.70,1.65,4*0D[2021-08-10 01:38:51.329]
$GPGSV,3,1,12,02,69,083,23,05,55,268,31,06,31,103,27,13,30,176,21,0*69[2021-08-10 01:38:51.329]
$GPGSV,3,2,12,25,10,262,14,07,09,073,,09,12,039,,12,08,231,09,0*6A[2021-08-10 01:38:51.329]
$GPGSV,3,3,12,15,11,204,,20,74,,15,29,33,312,15,30,07,108,,0*53[2021-08-10 01:38:51.329]
$GBGSV,4,1,16,19,61,232,09,30,17,145,10,01,35,140,,02,34,224,,0*77[2021-08-10 01:38:51.329]
$GBGSV,4,2,16,03,45,189,,04,26,123,,06,18,178,,07,05,189,,0*77[2021-08-10 01:38:51.329]
$GBGSV,4,3,16,08,67,022,,09,06,186,,10,15,210,,13,60,320,,0*7D[2021-08-10 01:38:51.329]
$GBGSV,4,4,16,16,23,174,,20,62,046,,22,09,229,,29,69,170,,0*72[2021-08-10 01:38:51.329]
$GNRMC,053854.00,A,4006.53040,N,11617.91914,E,1.490,,100821,,,A,V*19[2021-08-10 01:38:52.332]
$GNGGA,053854.00,4006.53040,N,11617.91914,E,1,10,2.52,47.1,M,,M,,*61[2021-08-10 01:38:52.332]
$GNGSA,A,3,05,02,06,13,20,25,29,12,,,,,4.80,2.52,4.08,1*0A[2021-08-10 01:38:52.332]
$GNGSA,A,3,19,30,,,,,,,,,,,4.80,2.52,4.08,4*0A[2021-08-10 01:38:52.332]
$GPGSV,3,1,12,02,69,083,20,05,55,268,29,06,31,103,26,13,30,176,21,0*62[2021-08-10 01:38:52.332]
$GPGSV,3,2,12,20,74,,15,07,09,073,,09,12,039,,12,08,231,09,0*5A[2021-08-10 01:38:52.332]
$GPGSV,3,3,12,15,11,204,,25,10,262,14,29,33,312,15,30,07,108,,0*63[2021-08-10 01:38:52.332]
$GBGSV,4,1,16,19,61,232,09,30,17,145,10,01,35,140,,02,34,224,,0*77[2021-08-10 01:38:52.332]
$GBGSV,4,2,16,03,45,189,,04,26,123,,06,18,178,,07,05,189,,0*77[2021-08-10 01:38:52.332]
$GBGSV,4,3,16,08,67,022,,09,06,186,,10,15,210,,13,60,320,,0*7D[2021-08-10 01:38:52.332]
$GBGSV,4,4,16,16,23,174,,20,62,046,,22,09,229,,29,69,170,,0*72[2021-08-10 01:38:52.332]
$GNRMC,053855.00,A,4006.53037,N,11617.91869,E,0.766,,100821,,,A,V*18[2021-08-10 01:38:53.329]
$GNGGA,053855.00,4006.53037,N,11617.91869,E,1,10,2.04,47.3,M,,M,,*6A[2021-08-10 01:38:53.329]
$GNGSA,A,3,05,02,06,13,20,25,29,12,,,,,3.02,2.04,2.22,1*0A[2021-08-10 01:38:53.329]
$GNGSA,A,3,19,30,,,,,,,,,,,3.02,2.04,2.22,4*0A[2021-08-10 01:38:53.329]
$GPGSV,3,1,12,02,69,083,20,05,55,268,30,06,31,103,26,12,08,231,11,0*63[2021-08-10 01:38:53.329]
$GPGSV,3,2,12,13,30,176,21,07,09,073,,09,12,039,,15,11,204,,0*6D[2021-08-10 01:38:53.329]
$GPGSV,3,3,12,20,74,,15,25,10,262,14,29,33,312,08,30,07,108,,0*58[2021-08-10 01:38:53.329]
$GBGSV,4,1,16,19,61,232,09,30,17,145,10,01,35,140,,02,34,224,,0*77[2021-08-10 01:38:53.329]
$GBGSV,4,2,16,03,45,189,,04,26,123,,06,18,178,,07,05,189,,0*77[2021-08-10 01:38:53.329]
$GBGSV,4,3,16,08,67,022,,09,06,186,,10,15,210,,13,60,320,,0*7D[2021-08-10 01:38:53.329]
$GBGSV,4,4,16,16,23,174,,20,62,046,,22,09,229,,29,69,170,,0*72[2021-08-10 01:38:53.329]
$GNRMC,053856.00,A,4006.53028,N,11617.91859,E,0.202,,100821,,,A,V*11[2021-08-10 01:38:54.322]
$GNGGA,053856.00,4006.53028,N,11617.91859,E,1,10,1.70,47.8,M,,M,,*6F[2021-08-10 01:38:54.322]
$GNGSA,A,3,05,02,06,13,20,25,29,12,,,,,2.37,1.70,1.65,1*0D[2021-08-10 01:38:54.322]
$GNGSA,A,3,19,30,,,,,,,,,,,2.37,1.70,1.65,4*0D[2021-08-10 01:38:54.322]
$GPGSV,3,1,12,02,69,083,20,05,55,268,30,06,31,103,28,13,30,176,21,0*64[2021-08-10 01:38:54.322]
$GPGSV,3,2,12,25,10,262,14,07,09,073,,09,12,039,,12,08,231,11,0*63[2021-08-10 01:38:54.322]
$GPGSV,3,3,12,15,11,204,,20,74,,15,29,33,312,08,30,07,108,,0*5F[2021-08-10 01:38:54.322]
$GBGSV,4,1,16,19,61,232,09,30,17,145,10,01,35,140,,02,34,224,,0*77[2021-08-10 01:38:54.322]
$GBGSV,4,2,16,03,45,189,,04,26,123,,06,18,178,,07,05,189,,0*77[2021-08-10 01:38:54.322]
$GBGSV,4,3,16,08,67,022,,09,06,186,,10,15,210,,13,60,320,,0*7D[2021-08-10 01:38:54.322]
$GBGSV,4,4,16,16,23,174,,20,62,046,,22,09,229,,29,69,170,,0*72[2021-08-10 01:38:54.322]
$GNRMC,053857.00,A,4006.53020,N,11617.91844,E,0.698,,100821,,,A,V*13[2021-08-10 01:38:55.334]
$GNGGA,053857.00,4006.53020,N,11617.91844,E,1,10,2.68,47.7,M,,M,,*6F[2021-08-10 01:38:55.334]
$GNGSA,A,3,05,02,06,13,20,25,29,12,,,,,5.67,2.68,4.99,1*03[2021-08-10 01:38:55.334]
$GNGSA,A,3,19,30,,,,,,,,,,,5.67,2.68,4.99,4*03[2021-08-10 01:38:55.334]
$GPGSV,3,1,12,02,69,083,20,05,55,268,29,06,31,103,28,13,30,176,20,0*6D[2021-08-10 01:38:55.334]
$GPGSV,3,2,12,20,74,,15,07,09,073,,09,12,039,,12,08,231,11,0*53[2021-08-10 01:38:55.334]
$GPGSV,3,3,12,15,11,204,,25,10,262,14,29,33,311,08,30,07,108,,0*6C[2021-08-10 01:38:55.334]
$GBGSV,4,1,16,01,35,140,,02,34,224,,03,45,189,,04,26,123,,0*74[2021-08-10 01:38:55.334]
$GBGSV,4,2,16,06,18,178,,07,05,189,,08,67,022,,09,06,186,,0*7C[2021-08-10 01:38:55.334]
$GBGSV,4,3,16,10,15,210,,13,60,320,,16,23,174,,19,61,232,15,0*78[2021-08-10 01:38:55.334]
$GBGSV,4,4,16,20,62,046,,22,09,229,,29,69,170,,30,17,145,09,0*7A[2021-08-10 01:38:55.334]
$GNRMC,053858.00,A,4006.53006,N,11617.91823,E,0.933,,100821,,,A,V*17[2021-08-10 01:38:56.328]
$GNGGA,053858.00,4006.53006,N,11617.91823,E,1,10,1.66,47.5,M,,M,,*6A[2021-08-10 01:38:56.328]
$GNGSA,A,3,05,02,06,13,20,25,29,12,,,,,2.55,1.66,1.94,1*00[2021-08-10 01:38:56.328]
$GNGSA,A,3,19,30,,,,,,,,,,,2.55,1.66,1.94,4*00[2021-08-10 01:38:56.328]
$GPGSV,3,1,12,02,69,083,20,05,55,268,30,06,31,103,27,13,30,176,20,0*6A[2021-08-10 01:38:56.328]
$GPGSV,3,2,12,20,74,,15,25,10,262,14,07,09,073,,09,12,039,,0*5D[2021-08-10 01:38:56.328]
$GPGSV,3,3,12,12,08,231,11,15,11,204,,29,33,311,08,30,07,108,,0*62[2021-08-10 01:38:56.328]
$GBGSV,4,1,16,01,35,140,,02,34,224,,03,45,189,,04,26,123,,0*74[2021-08-10 01:38:56.328]
$GBGSV,4,2,16,06,18,178,,07,05,189,,08,67,022,,09,06,186,,0*7C[2021-08-10 01:38:56.328]
$GBGSV,4,3,16,10,15,210,,13,60,320,,16,23,174,,19,61,232,15,0*78[2021-08-10 01:38:56.328]
$GBGSV,4,4,16,20,62,046,,22,09,229,,29,69,170,,30,17,145,09,0*7A[2021-08-10 01:38:56.328]
$GNRMC,053859.00,A,4006.52975,N,11617.91810,E,1.693,,100821,,,A,V*1E[2021-08-10 01:38:57.321]
$GNGGA,053859.00,4006.52975,N,11617.91810,E,1,10,1.66,47.5,M,,M,,*67[2021-08-10 01:38:57.321]
$GNGSA,A,3,05,02,06,13,20,25,29,12,,,,,2.55,1.66,1.94,1*00[2021-08-10 01:38:57.321]
$GNGSA,A,3,19,30,,,,,,,,,,,2.55,1.66,1.94,4*00[2021-08-10 01:38:57.321]
$GPGSV,3,1,12,02,69,083,20,05,55,268,29,06,31,103,28,13,30,176,21,0*6C[2021-08-10 01:38:57.321]
$GPGSV,3,2,12,20,74,,15,25,10,262,14,07,09,073,,09,12,039,,0*5D[2021-08-10 01:38:57.321]
$GPGSV,3,3,12,12,08,231,11,15,11,204,,29,33,311,08,30,07,108,,0*62[2021-08-10 01:38:57.321]
$GBGSV,4,1,16,01,35,140,,02,34,224,,03,45,189,,04,26,123,,0*74[2021-08-10 01:38:57.321]
$GBGSV,4,2,16,06,18,178,,07,05,189,,08,67,022,,09,06,186,,0*7C[2021-08-10 01:38:57.321]
$GBGSV,4,3,16,10,15,210,,13,60,320,,16,23,174,,19,61,232,15,0*78[2021-08-10 01:38:57.321]
$GBGSV,4,4,16,20,62,046,,22,09,229,,29,69,170,,30,17,145,09,0*7A[2021-08-10 01:38:57.321]
$GNRMC,053900.00,A,4006.52951,N,11617.91809,E,1.115,,100821,,,A,V*14[2021-08-10 01:38:58.330]
$GNGGA,053900.00,4006.52951,N,11617.91809,E,1,10,1.75,47.5,M,,M,,*66[2021-08-10 01:38:58.330]
$GNGSA,A,3,05,02,06,13,20,25,29,12,,,,,2.67,1.75,2.02,1*0F[2021-08-10 01:38:58.330]
$GNGSA,A,3,19,30,,,,,,,,,,,2.67,1.75,2.02,4*0F[2021-08-10 01:38:58.330]
$GPGSV,3,1,12,02,69,083,23,05,55,268,27,06,31,103,27,13,30,176,21,0*6E[2021-08-10 01:38:58.330]
$GPGSV,3,2,12,25,10,262,14,07,09,073,,09,12,039,,12,08,231,07,0*64[2021-08-10 01:38:58.330]
$GPGSV,3,3,12,15,11,204,,20,74,,15,29,33,311,12,30,07,108,,0*57[2021-08-10 01:38:58.330]
$GBGSV,4,1,16,01,35,140,,02,34,224,,03,45,189,,04,26,123,,0*74[2021-08-10 01:38:58.330]
$GBGSV,4,2,16,06,18,178,,07,05,189,,08,67,022,,09,06,186,,0*7C[2021-08-10 01:38:58.330]
$GBGSV,4,3,16,10,15,210,,13,60,320,,16,23,174,,19,61,232,15,0*78[2021-08-10 01:38:58.330]
$GBGSV,4,4,16,20,62,046,,22,09,229,,29,69,170,,30,17,145,09,0*7A[2021-08-10 01:38:58.330]
$GNRMC,053901.00,A,4006.52910,N,11617.91799,E,1.680,,100821,,,A,V*1D[2021-08-10 01:38:59.334]
